date,state,city,school,longitude,latitude,link,iglink
March 14,Arizona,Tucson,Tucson Stand Up,-110.9292947,32.2205493,https://www.facebook.com/events/126208401535837/,https://www.instagram.com/explore/locations/213215421/tucson-arizona/
March 14,California,Fremont,Mission San Jose High School,-121.933798,37.5442976,https://www.facebook.com/events/403169340096247/,https://www.instagram.com/explore/locations/228052048/mission-san-jose-high-school/
March 14,California,Sacramento,Women's March Sacramento,,,https://www.facebook.com/events/1632988706794673/,https://www.instagram.com/explore/locations/218412547/capitol-mall/
March 14,California,San Francisco,Lowell High School,-122.4833234,37.7306091,https://www.facebook.com/events/436606403422494/,https://www.instagram.com/explore/locations/107843/lowell-high-school/
March 14,Colorado,Boulder,Naropa University,-105.2673905,40.0141679,https://www.facebook.com/events/596214014055800/,https://www.instagram.com/explore/locations/144623/naropa-university/
March 14,Colorado,Broomfield,Broomfield High School,-105.075374,39.929873,https://www.facebook.com/events/348066852375295/,https://www.instagram.com/explore/locations/250993526/broomfield-high-school/
March 14,Colorado,Colorado Springs,Rampart High School,-104.772133,38.9494097,https://www.facebook.com/events/1788580364778907/,https://www.instagram.com/explore/locations/2318697/rampart-high-school/
March 14,Connecticut,Sandy Hook,Newtown High School,-73.2711026,41.4099636,https://www.facebook.com/events/1581119052003055/,https://www.instagram.com/explore/locations/9753934/newtown-high-school/
March 14,Connecticut,West Hartford,Conard High School,-72.7515446,41.7361993,https://www.facebook.com/events/2022495694685715/,https://www.instagram.com/explore/locations/4807447/conard-high-school/
March 14,Connecticut,West Hartford,Hall High School,-72.7510632,41.7943418,https://www.facebook.com/events/779477645576468/,https://www.instagram.com/explore/locations/6955097/hall-high-school/
March 14,Connecticut,Wilton,Wilton High School,-73.4330463,41.2104705,https://www.facebook.com/events/549490485449399/,https://www.instagram.com/explore/locations/242095080/wilton-high-school/
March 14,Delware,Newark,University of Delaware,-75.7506114,39.6779504,https://www.facebook.com/events/199852403945048/,https://www.instagram.com/explore/locations/213519809/university-of-delaware/
March 14,Florida,Boca Raton,Lynn University,-80.1249514,26.3842258,https://actionnetwork.org/events/enough-lynn-demands-action?referrer=&source=&email_referrer=&can_id=,https://www.instagram.com/explore/locations/4037316/lynn-university/
March 14,Florida,Bradenton,Manatee High School,-82.5946894,27.490857,https://actionnetwork.org/events/manatee-high-shool-walkout?referrer=&source=&email_referrer=&can_id=,https://www.instagram.com/explore/locations/256281886/manatee-high-school/
March 14,Florida,Bradenton,State College of Florida Collegiate School,-82.5913789,27.4391105,https://actionnetwork.org/events/state-college-of-florida-scf-collegiate-school-walkout?referrer=&source=&email_referrer=&can_id=,https://www.instagram.com/explore/locations/404044560/state-college-of-florida-collegiate-school/
March 14,Florida,Coral Gables,Coral Gables High School,-80.263209,25.7337719,https://actionnetwork.org/events/coral-gables-senior-high-national-walkout?referrer=&source=&email_referrer=&can_id=,https://www.instagram.com/explore/locations/215882529/coral-gables-senior-high-school/
March 14,Florida,Coral Springs,Coral Springs High School,-80.2202737,26.2733172,https://actionnetwork.org/events/enough-is-enough-15?referrer=&source=&email_referrer=&can_id=,https://www.instagram.com/explore/locations/214430824/coral-springs-high-school/
March 14,Florida,Greenacres,John I. Leonard Community High School,-80.1177754,26.631656,https://actionnetwork.org/events/national-school-walkout-at-john-i-leonard?referrer=&source=&email_referrer=&can_id=,https://www.instagram.com/explore/locations/890018779/john-i-leonard-community-high-school/
March 14,Florida,Homestead,Center for International Education,-80.4454323,25.4782501,https://actionnetwork.org/events/national-school-walkout-41?referrer=&source=&email_referrer=&can_id=,https://www.instagram.com/explore/locations/234941751/miami-dade-college-homestead-campus/
March 14,Florida,Homestead,Miami Dade College - Homestead Campus,-80.4741931,25.474449,https://actionnetwork.org/events/sasmdc-homestead-walkout?referrer=&source=&email_referrer=&can_id=,https://www.instagram.com/explore/locations/234941751/miami-dade-college-homestead-campus/
March 14,Florida,Jupiter,Jupiter Community High School,-80.1046359,26.9277523,https://actionnetwork.org/events/jupiter-high-school-walkout?referrer=&source=&email_referrer=&can_id=,https://www.instagram.com/explore/locations/567554197/jupiter-community-high-school/
March 14,Florida,Lake Worth,Palm Beach State College,-80.0862734,26.6131999,https://actionnetwork.org/events/national-school-walkout-at-pbsc?referrer=&source=&email_referrer=&can_id=,https://www.instagram.com/explore/locations/391870/palm-beach-state-college/
March 14,Florida,Melbourne,Eastern Florida State College - Melbourne Campus,-80.6708733,28.169954,https://actionnetwork.org/events/enough-efsc-melbourne?referrer=&source=&email_referrer=&can_id=,https://www.instagram.com/explore/locations/41378058/eastern-florida-state-college-melbourne-campus/
March 14,Florida,Miami,Design and Architecture High School,-80.1907166,25.8140153,https://www.instagram.com/explore/locations/257299402/design-and-architecture-high-school/,https://www.instagram.com/explore/locations/257299402/design-and-architecture-high-school/
March 14,Florida,Miami,I Preparatory Academy,-80.1899083,25.7897554,https://actionnetwork.org/events/iprep-high-school-walkout?referrer=&source=&email_referrer=&can_id=,https://www.instagram.com/explore/locations/785717788/i-preparatory-academy/
March 14,Florida,Miami,MAST Academy,-80.166319,25.7392367,https://actionnetwork.org/events/enough-national-school-walkout-36?referrer=&source=&email_referrer=&can_id=,https://www.instagram.com/explore/locations/218844391/mast-academy/
March 14,Florida,Miami,Miami Dade College - Wolfson Campus,-80.1907324,25.7776179,https://actionnetwork.org/events/walkout-mdc-wolfson?referrer=&source=&email_referrer=&can_id=,https://www.instagram.com/explore/locations/250025/miami-dade-college-wolfson-campus/
March 14,Florida,Miami,William H. Turner Technical Arts High School,-80.229093,25.8668259,https://actionnetwork.org/events/turner-tech-walkout?referrer=&source=&email_referrer=&can_id=,https://www.instagram.com/explore/locations/719518303/william-h-turner-technical-arts-high-school/
March 14,Florida,Miami Beach,Miami Beach High School,-80.1330527,25.7991041,https://actionnetwork.org/events/miami-beach-high-school-walkout?referrer=&source=&email_referrer=&can_id=,https://www.instagram.com/explore/locations/256319221/miami-beach-high-school/
March 14,Florida,Miami Shores,Miami Country Day School,-80.183936,25.874262,https://actionnetwork.org/events/miami-country-day-school-walkout?referrer=&source=&email_referrer=&can_id=,https://www.instagram.com/explore/locations/325674846/coep-miami-country-day-school/
March 14,Florida,North Miami Beach,Alonzo and Tracy Mourning Senior High Biscayne Bay Campus,-80.147027,25.9169889,https://actionnetwork.org/events/national-school-walkout-36?referrer=&source=&email_referrer=&can_id=,https://www.instagram.com/explore/locations/246230459/alonzo-and-tracy-mourning-senior-high-biscayne-bay-campus/
March 14,Florida,Riviera Beach,Suncoast Community HIgh School,-80.0819213,26.778872,https://actionnetwork.org/events/suncoast-walkout?referrer=&source=&email_referrer=&can_id=,https://www.instagram.com/p/Bexvi7dBMzk/?taken-at=243382780
March 14,Florida,Sarasota,New College of Florida,-82.558703,27.384828,https://actionnetwork.org/events/ncf-enough-walkout?referrer=&source=&email_referrer=&can_id=,https://www.instagram.com/explore/locations/1338220/new-college-of-florida/
March 14,Florida,Sarasota,Riverview High School,-82.5183869,27.282344,https://actionnetwork.org/events/riverview-high-school?referrer=&source=&email_referrer=&can_id=,https://www.instagram.com/explore/locations/378607773/riverview-high-school-sarasota-florida/
March 14,Florida,Sarasota,Sarasota High School,-82.526864,27.3245162,https://actionnetwork.org/events/shs-walkout?referrer=&source=&email_referrer=&can_id=,https://www.instagram.com/explore/locations/1018587695/sarasota-high-school-theatre/
March 14,Florida,Sarasota,Suncoast Polytechnical High School,-82.4993164,27.285737,https://actionnetwork.org/events/suncoast-polytechnical-high-walkout?referrer=&source=&email_referrer=&can_id=,https://www.instagram.com/explore/locations/750728688/suncoast-polytechnical-high-school/
March 14,Florida,Vero Beach,Vero Beach High School,-80.4035812,27.6288778,https://actionnetwork.org/events/vbhs-national-school-walkout?referrer=&source=&email_referrer=&can_id=,https://www.instagram.com/explore/locations/249015426/vero-beach-high-school/
March 14,Florida,Wellington,Wellington High School,-80.2657383,26.6502685,https://actionnetwork.org/events/wellington-walkout?referrer=&source=&email_referrer=&can_id=,FALSE
March 14,Florida,West Palm Beach,Dreyfoos School of the Arts,-80.0616264,26.7088319,https://www.facebook.com/events/996524017162297/,https://www.instagram.com/explore/locations/562265895/dreyfoos-school-of-the-arts/
March 14,Georgia,Atlanta,Druid Hills High School,-84.3157437,33.7938039,https://www.myajc.com/blog/get-schooled/history-will-kinder-student-organizers-walkout-than-their-critics/oWYycfO9HO4iGX1GnD1AnM/,https://www.instagram.com/explore/locations/238786964/druid-hills-high-school/
March 14,Hawaii,Ewa Beach,Ilima Intermediate School,-158.0117715,21.3160549,https://actionnetwork.org/events/ilima-says-enough-sending-aloha-to-stoneman-douglas?referrer=&source=&email_referrer=&can_id=,https://www.instagram.com/explore/locations/493807527/ilima-intermediate-school/
March 14,Hawaii,Honolulu,Henry J. Kaiser High School,-157.6945745,21.2850985,https://actionnetwork.org/events/enough-national-school-walkout-kaiser-high-school?referrer=&source=&email_referrer=&can_id=,https://www.instagram.com/explore/locations/263605030/henry-j-kaiser-high-school-hawaii/
March 14,Hawaii,Honolulu,Iolani School,-157.8249168,21.2860467,https://actionnetwork.org/events/enough-iolani-school-walkout?referrer=&source=&email_referrer=&can_id=,https://www.instagram.com/explore/locations/318386789/iolani-school/
March 14,Hawaii,Honolulu,Moanalua High School,-157.9003599,21.347123,https://actionnetwork.org/events/moanalua-high-school-walkout?referrer=&source=&email_referrer=&can_id=,https://www.instagram.com/explore/locations/464938/moanalua-high-school/
March 14,Hawaii,Honolulu,President George Washington Middle School,-157.8348853,21.295721,https://actionnetwork.org/events/washington-middle-school-walkout?referrer=&source=&email_referrer=&can_id=,https://www.instagram.com/explore/locations/825296348/president-george-washington-middle-school/
March 14,Hawaii,Honolulu,Punahou School,-157.8282173,21.3013328,https://actionnetwork.org/events/punahou-school-walkout-2?referrer=&source=&email_referrer=&can_id=,https://www.instagram.com/explore/locations/47088/punahou-school/
March 14,Hawaii,Honolulu,Sacred Hearts Academy,-157.806603,21.285976,https://actionnetwork.org/events/sacred-hearts-academy-high-school-walkout?referrer=&source=&email_referrer=&can_id=,https://www.instagram.com/explore/locations/309623/sacred-hearts-academy/
March 14,Hawaii,Honolulu,Saint Francis School,-157.811952,21.303339,https://actionnetwork.org/events/saint-francis-school-manoa-enough-walkout?referrer=&source=&email_referrer=&can_id=,https://www.instagram.com/explore/locations/884216161/saint-francis-school/
March 14,Hawaii,Honolulu,University Laboratory School,-157.8216782,21.2978857,https://actionnetwork.org/events/enough-standing-in-solidarity-with-stoneman-douglas?referrer=&source=&email_referrer=&can_id=,https://www.instagram.com/explore/locations/213226512/university-laboratory-school-a-hawaii-public-charter-school/
March 14,Hawaii,Honolulu,University of Hawaii at Moana,-157.8171118,21.296939,https://actionnetwork.org/events/enough-national-school-walkout-uh-manoa?referrer=&source=&email_referrer=&can_id=,https://www.instagram.com/explore/locations/54724/university-of-hawaii-at-manoa/
March 14,Hawaii,Keaau,Kea'au High School,-155.0313573,19.6126359,https://actionnetwork.org/events/keaau-high-school-walkout?referrer=&source=&email_referrer=&can_id=,https://www.instagram.com/explore/locations/219398696/keaau-high-school/
March 14,Hawaii,Pahoa,Hawaii Academy of Arts and Sciences,-154.9444627,19.5011993,https://actionnetwork.org/events/haas-high-school-walkout?referrer=&source=&email_referrer=&can_id=,https://www.instagram.com/explore/locations/14050553/hawaii-academy-of-arts-and-sciences/
March 14,Idaho,Boise,Bishop Kelly High School,-116.2695553,43.6016843,https://actionnetwork.org/events/bishop-kelly-high-school-walkout?referrer=&source=&email_referrer=&can_id=,https://www.instagram.com/explore/locations/223887670/bishop-kelly-high-school/
March 14,Idaho,Boise,Boise National School Walkout and Gun Safety Protest,,,https://actionnetwork.org/events/boise-national-school-walkout-and-gun-safety-protest?referrer=&source=&email_referrer=&can_id=,https://www.instagram.com/explore/locations/219338944/idaho-state-capitol/
March 14,Idaho,Boise,Sage International School,-116.1787139,43.5952144,https://actionnetwork.org/events/the-sage-middle-school-is-joining-the-revolution-and-walking-out?referrer=&source=&email_referrer=&can_id=,FALSE
March 14,Idaho,Coeur d'Alene,Coeur d'Alene High School,-116.7774239,47.7211708,https://actionnetwork.org/events/coeur-dalene-high-school-enough-national-school-walkout?referrer=&source=&email_referrer=&can_id=,https://www.instagram.com/explore/locations/235626462/coeur-dalene-high-school/
March 14,Idaho,Hailey,Wood River High School,-114.2936781,43.517505,https://actionnetwork.org/events/wood-river-high-school-walkout?referrer=&source=&email_referrer=&can_id=,https://www.instagram.com/explore/locations/339904109/wood-river-high-school/
March 14,Idaho,Hailey,Wood River Middle School,-114.316743,43.528807,https://actionnetwork.org/events/wood-river-middle-school-walkout?referrer=&source=&email_referrer=&can_id=,https://www.instagram.com/explore/locations/524822847711308/wood-river-middle-school-soccer-field/
March 14,Idaho,Twin Falls,Canyon Ridge High School,-114.4847089,42.5860626,https://actionnetwork.org/events/canyon-ridge-high-school-national-walkout-for-action?referrer=&source=&email_referrer=&can_id=,https://www.instagram.com/explore/locations/257328163/canyon-ridge-high-school/
March 14,Idaho,Twin Falls,Twin Falls High School,-114.4522197,42.5715367,https://actionnetwork.org/events/twin-falls-high-school-national-walkout-for-gun-control?referrer=&source=&email_referrer=&can_id=,https://www.instagram.com/explore/locations/252454006/twin-falls-high-school/
March 14,Illinois,Chicago,Northside College Prep,-87.7078996,41.9813057,https://www.facebook.com/events/156504728396138/,https://www.instagram.com/explore/locations/8384976/northside-college-prep/
March 14,Illinois,Evanston,Evanston Township High School,-87.7007442,42.0463103,https://www.facebook.com/events/593567674315439/,https://www.instagram.com/explore/locations/222633783/evanston-township-high-school-eths/
March 14,Illinois,Galesburg,Galesburg High School,-90.3885207,40.9635572,https://www.facebook.com/events/148434765838139/,https://www.instagram.com/explore/locations/250764724/galesburg-high-school/
March 14,Illinois,Libertyville,Libertyville High School,-87.9668211,42.2845997,https://www.facebook.com/events/147426235925956,https://www.instagram.com/explore/locations/227432377/libertyville-high-school/
March 14,Illinois,Lincolnshire,Adlai E. Stevenson High School,-87.9461339,42.1993548,https://www.facebook.com/events/376516022820457/,https://www.instagram.com/explore/locations/3874157/adlai-e-stevenson-high-school/
March 14,Illinois,Wheaton,Friends Who March,,,https://www.facebook.com/events/191745574760390/,https://www.instagram.com/explore/locations/7027245/wheaton-illinois/
March 14,Kentucky,,Kentucky National Organization for Women,-85.7177807,38.2348954,https://www.facebook.com/events/350438632030439/,https://www.instagram.com/explore/locations/290382475/kentucky/
March 14,Maine,Falmouth,Falmouth High School,-70.272571,43.7404535,https://www.facebook.com/events/184454538837139/,https://www.instagram.com/explore/locations/242998881/falmouth-high-school-maine/
March 14,Maine,Fryeburg,Fryeburg Academy,-70.975353,44.0198928,https://www.facebook.com/events/2044766678873223/,https://www.instagram.com/explore/locations/11402527/fryeburg-academy/
March 14,Maine,Orono,Orono High School,-68.6775322,44.88216,https://www.facebook.com/events/185636788591286/,https://www.instagram.com/explore/locations/500401006/orono-high-school/
March 14,Maine,Saco,York County Young Dems,,,https://www.facebook.com/events/151620052188694/,https://www.instagram.com/explore/locations/624478847/saco-transportation-center/
March 14,Maine,South Berwick,Marshwood High School,-70.797379,43.2007103,https://www.facebook.com/events/1839098139436550/,https://www.instagram.com/explore/locations/238067897/marshwood-high-school/
March 14,Maine,Waterville,Waterville Senior High School,-69.64292,44.5522744,https://www.facebook.com/events/1344131269065869/,https://www.instagram.com/explore/locations/800452492/waterville-senior-high-school/
March 14,Massachusetts,Boxford,Masconomet Regional High School,-70.9757922,42.6271399,https://www.facebook.com/events/1599308050146318/,https://www.instagram.com/explore/locations/629094/masconomet-regional-high-school/
March 14,Massachusetts,Framingham,Framingham High School,-71.403192,42.318635,https://www.facebook.com/events/352212548627123/,https://www.instagram.com/explore/locations/228791629/framingham-high-school/
March 14,Massachusetts,Great Barrington,Monument Mountain Regional High School,-73.331542,42.248587,https://www.facebook.com/events/152324835402042/,https://www.instagram.com/explore/locations/726676269/monument-mt-regional-high/
March 14,Massachusetts,Holliston,Holliston High,-71.4443855,42.2058549,https://www.facebook.com/events/218969038680008/,https://www.instagram.com/explore/locations/479325389/holliston-high/
March 14,Massachusetts,Wakefield,Wakefield High School,-71.0512097,42.4964549,https://www.facebook.com/events/186367298636459/,https://www.instagram.com/explore/locations/1022702580/wakefield-high-school-wakefield-massachusetts/
March 14,Massachusetts,Wayland,Wayland High School,-71.3740577,42.3419115,https://www.facebook.com/events/174919813148048/,https://www.instagram.com/explore/locations/499099246/wayland-high-school/
March 14,Massachusetts,Westwood,Westwood High School,-71.2167319,42.2170063,https://www.facebook.com/events/1800189730043601/,https://www.instagram.com/explore/locations/223023085/westwood-high-school/
March 14,Michigan,Coopersville,Coopersville High School,-85.9223925,43.0658614,https://www.facebook.com/events/1775410029145741/,https://www.instagram.com/explore/locations/737300788/coopersville-high-school/
March 14,New Hampshire,Orford,Rivendell Academy,-72.1376509,43.899294,https://www.facebook.com/events/1796839593955451/,https://www.instagram.com/explore/locations/372049678/rivendell-academy/
March 14,New Hampshire,Portsmouth,National School Walkout - Seacoast of New Hampshire,,,https://www.facebook.com/events/408328249620756/,https://www.instagram.com/explore/locations/215304665/portsmouth-new-hampshire/
March 14,New Jersey,Lawrenceville,Lawrence High School,-74.7309635,40.2655175,https://www.facebook.com/events/152357155453185/,https://www.instagram.com/explore/locations/251738920/lawrence-high-school-new-jersey/
March 14,New Jersey,Montclair,Montclair High School,-74.2129739,40.823288,https://www.facebook.com/events/226267377945633/,https://www.instagram.com/explore/locations/874836852/montclair-high-school-new-jersey/
March 14,New Jersey,Morristown,Morristown High School,-74.4863304,40.8012115,https://www.facebook.com/events/159051714752963/,https://www.instagram.com/explore/locations/1016675920/morristown-high-school/
March 14,New Jersey,Scotch Plains,Scotch Plains-Fanwood High School,-74.3842216,40.6537456,https://www.facebook.com/events/1575550605815761/,https://www.instagram.com/explore/locations/243224748/scotch-plains-fanwood-high-school/
March 14,New Jersey,West Milford,West Milford High School,-74.3810114,41.0791106,https://www.facebook.com/events/734632569994123/,https://www.instagram.com/explore/locations/3544845/west-milford-high-school/
March 14,New York,Brewster,Brewster High School,-73.6034219,41.4422111,https://www.facebook.com/events/559863571057400/,https://www.instagram.com/explore/locations/246738696/brewster-high-school-brewster-new-york/
March 14,New York,Bronxville,Bronxville Union Free School District,-73.8272029,40.9374908,https://www.facebook.com/events/903892243105704/,https://www.instagram.com/explore/locations/1026363643/bronxville-union-free-school-district/
March 14,New York,Buffalo,Villa Maria College,-78.7973749,42.9127719,https://www.facebook.com/events/1575313795916540/,https://www.instagram.com/explore/locations/391706/villa-maria-college/
March 14,New York,Chappaqua,Horace Greeley High School,-73.7579745,41.1752353,https://www.facebook.com/events/1517939024970890/,FALSE
March 14,New York,Clifton Park,Shenendehowa Central School District,-73.8183804,42.844668,https://www.facebook.com/events/196104357789480/,https://www.instagram.com/explore/locations/311364021/shenendehowa-central-school-district/
March 14,New York,Great Neck,William A. Shine Great Neck South High School,-73.7005113,40.7663856,https://www.facebook.com/events/190751081518410/,https://www.instagram.com/explore/locations/221723998/william-a-shine-great-neck-south-high-school/
March 14,New York,Ithaca,Ithaca High School,-76.4976543,42.4550421,https://www.facebook.com/events/431605020607030/,https://www.instagram.com/explore/locations/234330071/ithaca-high-school/
March 14,New York,New Rochelle,New Rochelle High School,-73.7936935,40.9294323,https://www.facebook.com/events/109330626566029/,FALSE
March 14,New York,New York,Baruch College Campus High School,-73.985909,40.7418485,https://www.facebook.com/events/170440427078732/,https://www.instagram.com/explore/locations/279377826/baruch-college-campus-high-school/
March 14,New York,Pittsford,Pittsford Mendon High School,-77.5177314,43.0600668,https://www.facebook.com/events/392410524516682/,https://www.instagram.com/explore/locations/250812270/pittsford-mendon-high-school/
March 14,New York,Queens,St. John's University,-73.7946899,40.7215967,https://www.facebook.com/events/1639326459485278/,https://www.instagram.com/explore/locations/217492744/st-johns-university/
March 14,New York,Rochester,School of the Arts,-77.590789,43.158543,https://www.facebook.com/events/2073843679517683/,https://www.instagram.com/explore/locations/503921431/school-of-the-arts/
March 14,North Carolina,Cullowhee,Western Carolina University,-83.1843781,35.3089224,https://www.facebook.com/events/1586150888167289/,https://www.instagram.com/explore/locations/1824397/western-carolina-university/
March 14,North Carolina,Gastonia,Ashbrook High School,-81.1269334,35.2432006,https://www.facebook.com/events/297842017410753/,https://www.instagram.com/explore/locations/7303040/ashbrook-high-school/
March 14,North Carolina,Hendersonville,West Henderson High,-82.5148451,35.3658136,https://www.facebook.com/events/1691210574275853/,https://www.instagram.com/explore/locations/696528721/west-henderson-high/
March 14,North Dakota,Bismarck,Bismarck High School,-100.7802494,46.813099,https://actionnetwork.org/events/bismarck-high-school-walkout-against-gun-violence?referrer=&source=&email_referrer=&can_id=,https://www.instagram.com/explore/locations/215517955/bismarck-high-school/
March 14,North Dakota,Fargo,Davies High School,-96.816995,46.780784,https://actionnetwork.org/events/davies-high-school-walkout?referrer=&source=&email_referrer=&can_id=,https://www.instagram.com/explore/locations/255238032/davies-high-school/
March 14,North Dakota,Grand Forks,Grand Forks Central High School,-97.035077,47.9254958,https://actionnetwork.org/events/never-again-walkout?referrer=&source=&email_referrer=&can_id=,https://www.instagram.com/explore/locations/932066505/grand-forks-central-high-school/
March 14,North Dakota,Jamestown,Jamestown High School,-98.686903,46.9181235,https://actionnetwork.org/events/jhs-walkout?referrer=&source=&email_referrer=&can_id=,https://www.instagram.com/explore/locations/288521378/jamestown-high-school-north-dakota/
March 14,Ohio,Akron,Harvey S. Firestone Community Learning Center,,,https://www.facebook.com/events/166479427407511/,https://www.instagram.com/explore/locations/904865809681637/harvey-s-firestone-clc/
March 14,Ohio,Columbus,Ohio State University,-83.0309143,40.0141905,https://www.facebook.com/events/1015189101972389/,https://www.instagram.com/explore/locations/214700938/the-ohio-state-university/
March 14,Ohio,Logan,Logan High School,-82.3743442,39.5158569,https://www.facebook.com/events/596622900675131/,https://www.instagram.com/explore/locations/244034502/logan-high-school-ohio/
March 14,Ohio,Lorain,Lorain High School,-82.1904797,41.4465496,https://www.facebook.com/events/194226311176988/,https://www.instagram.com/explore/locations/309858578/lorain-catholic-high-school/
March 14,Oregon,Eugene,University of Oregon,-123.0726055,44.0448302,https://www.facebook.com/events/1817071381699936/,https://www.instagram.com/explore/locations/40979/university-of-oregon/
March 14,Oregon,Monmouth,Western Oregon University,-123.2409798,44.8536068,https://www.facebook.com/events/424361667985228/,https://www.instagram.com/explore/locations/288368361/western-oregon-university/
March 14,Oregon,Springfield,Springfield High School,-123.0158084,44.0535256,https://www.facebook.com/events/840810992786635/,https://www.instagram.com/explore/locations/1011548899/springfield-high-school-oregon/
March 14,Rhode Island,Bristol,Mt. Hope High School,-71.2692521,41.6877084,https://www.facebook.com/events/2042575069116791/,https://www.instagram.com/explore/locations/895397367/mt-hope-high-school/
March 14,South Dakota,Rapid City,EMPOWER Rapid City,-103.220957,44.0979824,https://actionnetwork.org/events/empowe-rapid-city?referrer=&source=&email_referrer=&can_id=,https://www.instagram.com/explore/locations/170608026/rapid-city-south-dakota/
March 14,Vermont,Enosburg Falls,Enosburg Falls Junior/Senior High School,-72.8039149,44.9053176,https://www.facebook.com/events/1929964460650703/,https://www.instagram.com/explore/locations/1015990270/enosburg-falls-juniorsenior-high-school/
March 14,Virginia,Charlottesville,University of Virginia,-78.5079772,38.0335529,https://www.facebook.com/events/1970456269941416/,https://www.instagram.com/explore/locations/213910390/university-of-virginia/
March 14,Virginia,Stafford,Colonial Forge High School,-77.4508901,38.4346596,https://www.facebook.com/events/220335188528377/,https://www.instagram.com/explore/locations/236533790/colonial-forge-high-school/
March 14,Virginia,Staunton,R.E. Lee High School,-79.0532921,38.1648669,https://www.facebook.com/events/161112251210967/,https://www.instagram.com/explore/locations/1706976972906839/re-lee-high-school/
March 14,Washington,Bellevue,Bellevue High School,-122.198703,47.6041425,https://actionnetwork.org/events/enough-national-school-walkout-101?referrer=&source=&email_referrer=&can_id=,https://www.instagram.com/explore/locations/524977011019392/bellevue-high-school/
March 14,Washington,Bellevue,Interlake High School,-122.124041,47.628934,https://actionnetwork.org/events/interlake-high-school-national-school-walkout-enough?referrer=&source=&email_referrer=&can_id=,https://www.instagram.com/explore/locations/413544/interlake-high-school/
March 14,Washington,Bellevue,International School,-122.1712904,47.6042005,https://actionnetwork.org/events/international-school-bellevue-participates-in-the-national-school-walkout?referrer=&source=&email_referrer=&can_id=,https://www.instagram.com/explore/locations/434597910/international-school/
March 14,Washington,Bellevue,Newport High School,-122.1722352,47.5679585,https://actionnetwork.org/events/enough-national-school-walkout-newport-hs?referrer=&source=&email_referrer=&can_id=,https://www.instagram.com/explore/locations/234708504/newport-high-school/
March 14,Washington,Bellingham,Whatcom Community College,-122.4927431,48.7946887,https://actionnetwork.org/events/enough-whatcom-community-college-walkout?referrer=&source=&email_referrer=&can_id=,https://www.instagram.com/explore/locations/1110740/whatcom-community-college/
March 14,Washington,Bothell,Bothell High School,-122.2192398,47.760959,https://actionnetwork.org/events/bhs-walkout-3?referrer=&source=&email_referrer=&can_id=,https://www.instagram.com/explore/locations/221636169/bothell-high-school/
March 14,Washington,Bothell,North Creek High School,-122.1826917,47.8241371,https://www.facebook.com/events/225842161319625/,FALSE
March 14,Washington,Camas,Camas High School,-122.3982092,45.6122901,https://actionnetwork.org/events/never-again-student-walkout-at-camas-high-school?referrer=&source=&email_referrer=&can_id=,https://www.instagram.com/explore/locations/1962641/camas-high-school/
March 14,Washington,Carnation,Riverview Learning Center,-121.9077479,47.6515423,https://actionnetwork.org/events/riverview-learning-center-walkout?referrer=&source=&email_referrer=&can_id=,FALSE
March 14,Washington,College Place,Walla Walla University,-118.3906389,46.0464496,https://actionnetwork.org/events/enough-national-school-walkout-walla-walla-university?referrer=&source=&email_referrer=&can_id=,https://www.instagram.com/explore/locations/2271490/walla-walla-university/
March 14,Washington,Coupeville,Coupeville High School,-122.6847552,48.2064233,https://actionnetwork.org/events/enough-high-school-walkout-coupeville?referrer=&source=&email_referrer=&can_id=,https://www.instagram.com/explore/locations/769948403/coupeville-high-school/
March 14,Washington,Deming,Mount Baker High School,-122.2219458,48.8254489,https://actionnetwork.org/events/mbhs-march-for-our-lives?referrer=&source=&email_referrer=&can_id=,https://www.instagram.com/explore/locations/845998412/mount-baker-senior-high/
March 14,Washington,Duvall,Cedarcrest High School,-121.9513861,47.736396,https://actionnetwork.org/events/national-school-walkout-12?referrer=&source=&email_referrer=&can_id=,https://www.instagram.com/explore/locations/250323751/cedarcrest-high-school/
March 14,Washington,Eastsound,Orcas Island School District,-122.902561,48.699093,https://actionnetwork.org/events/school-walkout-orcas-island-high-school?referrer=&source=&email_referrer=&can_id=,https://www.instagram.com/explore/locations/429611461/orcas-island-school-district/
March 14,Washington,Edmonds,Edmonds Woodway High School,-122.3377965,47.8050183,https://actionnetwork.org/events/ewhs-walkout?referrer=&source=&email_referrer=&can_id=,https://www.instagram.com/explore/locations/353188/edmonds-woodway-high-school/
March 14,Washington,Ellensburg,Ellensburg Indivisible,,,https://actionnetwork.org/events/walkout-against-school-vioelnce?referrer=&source=&email_referrer=&can_id=,https://www.instagram.com/explore/locations/226270683/ellensburg-washington/
March 14,Washington,Everett,Explorer Middle School,-122.2479307,47.9109158,https://actionnetwork.org/events/ems-walkout?referrer=&source=&email_referrer=&can_id=,https://www.instagram.com/explore/locations/744583578/explorer-middle-school/
March 14,Washington,Everett,Mariner High School,-122.2363741,47.887831,https://actionnetwork.org/events/ems-walkout?referrer=&source=&email_referrer=&can_id=,https://www.instagram.com/explore/locations/237668505/mariner-high-school/
March 14,Washington,Everett,Snohomish County,-122.2020795,47.9789848,https://actionnetwork.org/events/enough-students-families-against-gun-violence-womens-march-everett-wa-snoco-group?referrer=&source=&email_referrer=&can_id=,https://www.instagram.com/explore/locations/252163541/snohomish-county-courthouse/
March 14,Washington,Granite Falls,Granite Falls High School,-121.987481,48.0875243,https://actionnetwork.org/events/gfhswa-communicate?referrer=&source=&email_referrer=&can_id=,https://www.instagram.com/explore/locations/132360/granite-falls-high-school/
March 14,Washington,Issaquah,Endeavour Elementary,-121.988261,47.5703704,https://actionnetwork.org/events/enough-national-school-walkout-38?referrer=&source=&email_referrer=&can_id=,https://www.instagram.com/explore/locations/297713075/endeavour-elementary-ptsa/
March 14,Washington,Issaquah,Issaquah High School,-122.0286734,47.5224852,https://actionnetwork.org/events/issaquah-high-national-school-walkout?referrer=&source=&email_referrer=&can_id=,https://www.instagram.com/explore/locations/235955797/issaquah-high-school/
March 14,Washington,Kenmore,Arrowhead Elementary,-122.2516515,47.7378077,https://actionnetwork.org/events/arrowhead-elementary-school-enough-national-school-walkout?referrer=&source=&email_referrer=&can_id=,https://www.instagram.com/explore/locations/142349722464207/arrowhead-elementary-school/
March 14,Washington,Kenmore,Inglemoor High School,-122.2232655,47.7405102,https://actionnetwork.org/events/inglemoor-high-school-school-walkout?referrer=&source=&email_referrer=&can_id=,https://www.instagram.com/explore/locations/6966757/inglemoor-high-school/
March 14,Washington,Kenmore,Kenmore Middle School,-122.2543884,47.7761432,https://actionnetwork.org/events/kms-walkout?referrer=&source=&email_referrer=&can_id=,https://www.instagram.com/explore/locations/773980639/kenmore-junior-high/
March 14,Washington,Kent,Glenridge Elementary,-122.1827745,47.428305,https://actionnetwork.org/events/glenridge-elementary-national-school-walkout?referrer=&source=&email_referrer=&can_id=,https://www.instagram.com/explore/locations/244662076/glenridge-elementary/
March 14,Washington,Kent,Kentridge High School,-122.1740091,47.4166906,https://actionnetwork.org/events/kentridge-high-school-walk-out?referrer=&source=&email_referrer=&can_id=,https://www.instagram.com/explore/locations/901896993/kentridge-high-school/
March 14,Washington,Kirkland,Finn Hill Junior High School,-122.2306048,47.7195589,https://actionnetwork.org/events/national-school-walkout-5?referrer=&source=&email_referrer=&can_id=,https://www.instagram.com/explore/locations/743888199/finn-hill-junior-high-school/
March 14,Washington,Kirkland,Henry David Thoreau Elementary School,-122.2303274,47.7251308,https://actionnetwork.org/events/hd-thoreau-elementary-school-walkout?referrer=&source=&email_referrer=&can_id=,https://www.instagram.com/explore/locations/843132124/henry-david-thoreau-elementary/
March 14,Washington,Kirkland,International Community School,-122.1904133,47.6643165,https://actionnetwork.org/events/international-community-school-kirkland-participates-in-the-national-school-walkout?referrer=&source=&email_referrer=&can_id=,https://www.instagram.com/explore/locations/236540660/international-community-school/
March 14,Washington,Kirkland,Juanita High School,-122.1987395,47.7153306,https://actionnetwork.org/events/enough-national-school-walkout-37?referrer=&source=&email_referrer=&can_id=,https://www.instagram.com/explore/locations/500497737/juanita-high-school/
March 14,Washington,Kirkland,Kamiakin Middle School,-122.1654941,47.7275095,https://actionnetwork.org/events/enough-national-school-walkout-91?referrer=&source=&email_referrer=&can_id=,https://www.instagram.com/explore/locations/62834444/kamiakin-middle-school-area/
March 14,Washington,Kirkland,Robert Frost Elementary,-122.1835416,47.7245194,https://actionnetwork.org/events/enough-national-school-walkout-42?referrer=&source=&email_referrer=&can_id=,https://www.instagram.com/explore/locations/452679843/robert-frost-elementary-ptsa/
March 14,Washington,Lake Stevens,North Lake Middle School,-122.0652851,48.0179129,https://actionnetwork.org/events/north-lake-middle-school?referrer=&source=&email_referrer=&can_id=,https://www.instagram.com/explore/locations/789190956/north-lake-middle-school/
March 14,Washington,Lynnwood,Lynndale Elementary School,-122.3312294,47.8253637,https://actionnetwork.org/events/lynndale-elementary-school-national-walkout?referrer=&source=&email_referrer=&can_id=,FALSE
March 14,Washington,Marysville,Marysville Pilchuck High School,-122.154923,48.096469,https://actionnetwork.org/events/congresses-inaction-protest?referrer=&source=&email_referrer=&can_id=,https://www.instagram.com/explore/locations/235994770/marysville-pilchuck-high-school/
March 14,Washington,Mill Creek,Heatherwood Middle School,-122.2088779,47.871899,https://actionnetwork.org/events/enough-12?referrer=&source=&email_referrer=&can_id=,https://www.instagram.com/explore/locations/706387229/heatherwood-middle-school/
March 14,Washington,Mill Creek,Henry M. Jackson High School,-122.2095539,47.873312,https://www.actionnetwork.org/event_campaigns/enough-national-school-walkout,https://www.instagram.com/explore/locations/219012196/henry-m-jackson-high-school/
March 14,Washington,Monroe,Park Place Middle School,-121.9893799,47.8502259,https://actionnetwork.org/events/national-school-walkout-7?referrer=&source=&email_referrer=&can_id=,https://www.instagram.com/explore/locations/881439228627878/park-place-middle-school/
3/14/2018,Washington,Mount Vernon,Mount Baker Middle School,-122.3118321,48.4132062,https://actionnetwork.org/events/mbms-student-led-protest?referrer=&source=&email_referrer=&can_id=,https://www.instagram.com/explore/locations/747352632/mount-baker-middle-school/
March 14,Washington,Mukilteo,Olympic View Middle School,-122.3015642,47.9303259,https://actionnetwork.org/events/ovms?referrer=&source=&email_referrer=&can_id=,https://www.instagram.com/explore/locations/726716920/olympic-view-middle-school/
March 14,Washington,North Bend,Twin Falls Middle School,-121.7146469,47.4734339,https://actionnetwork.org/events/twin-falls-middle-school-walkout?referrer=&source=&email_referrer=&can_id=,FALSE
March 14,Washington,Olympia,Avanti High School,-122.887597,47.0435226,https://www.facebook.com/events/427722607662787/,https://www.instagram.com/explore/locations/479310525595732/avanti-high-school/
March 14,Washington,Port Townsend,Blue Heron Middle School,-122.7790569,48.1291275,https://actionnetwork.org/events/enough-school-walkout-port-townsend?referrer=&source=&email_referrer=&can_id=,https://www.instagram.com/explore/locations/1011927273/blue-heron-middle-school/
March 14,Washington,Redmond,Redmond High School,-122.1080377,47.6944972,https://actionnetwork.org/events/redmond-high-school-student-walk-out?referrer=&source=&email_referrer=&can_id=,https://www.instagram.com/explore/locations/265193204/redmond-high-school-washington/
March 14,Washington,Renton,Hazen High School,-122.1527879,47.5015998,https://actionnetwork.org/events/enough-national-school-walkout-oliver-m-hazen?referrer=&source=&email_referrer=&can_id=,https://www.instagram.com/explore/locations/236797184/hazen-high-school/
March 14,Washington,Richland,Hanford High School,-119.2674568,46.3254159,https://actionnetwork.org/events/hanford-high-enough-walkout?referrer=&source=&email_referrer=&can_id=,https://www.instagram.com/explore/locations/175628452863921/hanford-high-school/
March 14,Washington,Sammamish,Discovery Elementary,-122.0339616,47.5891306,https://actionnetwork.org/events/enough-national-school-walkout-73?referrer=&source=&email_referrer=&can_id=,https://www.instagram.com/explore/locations/818103698/discovery-elementary/
March 14,Washington,Sammamish,Eastlake High School,-122.0313473,47.6135603,https://actionnetwork.org/events/enough-student-led-walkout-eastlake?referrer=&source=&email_referrer=&can_id=,https://www.instagram.com/explore/locations/250708295/eastlake-high-school/
March 14,Washington,Sammamish,Samantha Smith Elementary,-122.02737,47.6210116,https://actionnetwork.org/events/enough-national-school-walkout-56?referrer=&source=&email_referrer=&can_id=,https://www.instagram.com/explore/locations/721887006/samantha-smith-elementary/
March 14,Washington,Seattle,Ballard High School,-122.374338,47.676859,https://actionnetwork.org/events/ballard-high-school-walk-out?referrer=&source=&email_referrer=&can_id=,https://www.instagram.com/explore/locations/252464558/ballard-high-school-seattle-washington/
March 14,Washington,Seattle,Garfield High School,-122.301866,47.6053376,https://actionnetwork.org/events/garfield-high-school-enough-walkout?referrer=&source=&email_referrer=&can_id=,https://www.instagram.com/explore/locations/338405546/garfield-high-school/
March 14,Washington,Seattle,Hamilton International Middle School,-122.3379137,47.6571808,https://actionnetwork.org/events/hamilton-international-middle-school-walk-out-2?referrer=&source=&email_referrer=&can_id=,https://www.instagram.com/explore/locations/702561891/hamilton-international-middle-school/
March 14,Washington,Seattle,Hazel Wolf K-8 Stem School,-122.3145253,47.7133567,https://actionnetwork.org/events/hazel-wolf-walkout?referrer=&source=&email_referrer=&can_id=,https://www.instagram.com/explore/locations/1224105234364736/hazel-wolf-k-8-stem-school/
March 14,Washington,Seattle,Holy Names Academy,-122.304155,47.626175,https://actionnetwork.org/events/holy-names-academy-high-school-walkout?referrer=&source=&email_referrer=&can_id=,https://www.instagram.com/explore/locations/234492297/holy-names-academy-seattle/
March 14,Washington,Seattle,Lakeside Middle School,-122.3274686,47.7335532,https://actionnetwork.org/events/lakeside-middle-school-gun-violence-walkout?referrer=&source=&email_referrer=&can_id=,https://www.instagram.com/explore/locations/640388150/lakeside-middle-school/
March 14,Washington,Seattle,North Seattle College,-122.3334235,47.6991867,https://actionnetwork.org/events/north-seattle-college-walkout?referrer=&source=&email_referrer=&can_id=,https://www.instagram.com/explore/locations/318427/north-seattle-college/
March 14,Washington,Seattle,Sacajawea Elementary School,-122.3075542,47.6985053,https://actionnetwork.org/events/sacajawea-elementary-walkout?referrer=&source=&email_referrer=&can_id=,https://www.instagram.com/explore/locations/826917145/sacajawea-elementary-school/
March 14,Washington,Seattle,Salmon Bay School,-122.3804807,47.6765526,https://actionnetwork.org/events/national-school-walkout-at-salmon-bay-k-8?referrer=&source=&email_referrer=&can_id=,https://www.instagram.com/explore/locations/2524207/salmon-bay-school/
March 14,Washington,Seattle,South Seattle College,-122.3522151,47.5482796,https://actionnetwork.org/events/we-are-walking-out-on-gun-violence?referrer=&source=&email_referrer=&can_id=,https://www.instagram.com/explore/locations/128942647927540/south-seattle-college/
March 14,Washington,Seattle,Thornton Creek School,-122.2848729,47.6851163,https://actionnetwork.org/events/enough-national-school-walkout-100?referrer=&source=&email_referrer=&can_id=,FALSE
March 14,Washington,Seattle,University of Washington,-122.3035199,47.6553351,https://actionnetwork.org/events/uw-seattle-walkout?referrer=&source=&email_referrer=&can_id=,https://www.instagram.com/explore/locations/26809142/university-of-washington/
March 14,Washington,Seattle,Whitman Middle School,-122.3777192,47.6965669,https://actionnetwork.org/events/enough-national-school-walkout-97?referrer=&source=&email_referrer=&can_id=,https://www.instagram.com/explore/locations/732488368/whitman-middle-school/
March 14,Washington,Seattle,Whittier Heights Elementary,-122.3732327,47.6837505,https://actionnetwork.org/events/whittier-heights-elementary-national-school-walkout?referrer=&source=&email_referrer=&can_id=,https://www.instagram.com/explore/locations/715608061/whittier-elementary-school/
3/14/2018,Washington,Sedro-Woolley,Sedro-Woolley High School,-122.2371617,48.5000779,https://actionnetwork.org/events/enough-sedro-woolley-high-school-walkout?referrer=&source=&email_referrer=&can_id=,https://www.instagram.com/explore/locations/240085440/sedro-woolley-high-school/
3/14/2018,Washington,Spokane,East Valley High School,-117.1942723,47.7018238,https://actionnetwork.org/events/east-valley-high-school-walkout?referrer=&source=&email_referrer=&can_id=,https://www.instagram.com/explore/locations/270674313446026/east-valley-high-school/
3/14/2018,Washington,Spokane,National School Walkout Washington State,,,https://actionnetwork.org/events/enough-national-school-walkout-washington-state?referrer=&source=&email_referrer=&can_id=,https://www.instagram.com/explore/locations/213392212/spokane-washington/
March 14,Washington,Vancouver,Columbia River High School,-122.6779973,45.6942099,https://actionnetwork.org/events/columbia-river-hs-walkout?referrer=&source=&email_referrer=&can_id=,https://www.instagram.com/explore/locations/236454533/columbia-river-high-school/
March 14,Washington,Vancouver,Vancouver School of Arts and Academics,-122.6687171,45.6439069,https://actionnetwork.org/events/enough-vsaa-walkout?referrer=&source=&email_referrer=&can_id=,https://www.instagram.com/explore/locations/13854879/vancouver-school-of-arts-and-academics/
March 14,Washington,White Salmon,Columbia High School,-121.494112,45.7418919,https://actionnetwork.org/events/columbia-high-school-enough-is-enough?referrer=&source=&email_referrer=&can_id=,https://www.instagram.com/explore/locations/966630871/columbia-high-school-white-salmon-washington/
March 14,Washington,Woodinville,Wellington Elementary,-122.1202037,47.7678997,https://actionnetwork.org/events/wellington-elementary-walkout?referrer=&source=&email_referrer=&can_id=,https://www.instagram.com/explore/locations/756865395/wellington-elementary/
March 14,Washington,Woodinville,Woodinville High School,-122.161063,47.7712405,https://actionnetwork.org/events/woodinville-high-school-national-school-walkout?referrer=&source=&email_referrer=&can_id=,https://www.instagram.com/explore/locations/262017391/woodinville-high-school/
March 14,Wisconsin,Galesville,Galesville-Ettrick-Trempealeau High,-91.343149,44.092931,https://www.facebook.com/events/1570458653001445/,https://www.instagram.com/explore/locations/746388020/galesville-ettrick-trempealeau-high/
March 14,Wisconsin,Madison,James Madison Memorial High School,-89.500879,43.0638767,https://www.facebook.com/events/128135758006443/,https://www.instagram.com/explore/locations/5168906/james-madison-memorial-high-school/
March 14,Wisconsin,Madison,Madison East High School,-89.3542605,43.0976208,https://www.facebook.com/events/128135758006443/,https://www.instagram.com/explore/locations/129367437120066/madison-east-high-school-purgolder-boosters/
March 14,Wisconsin,Madison,Madison West High School,-89.4262422,43.0687638,https://www.facebook.com/events/128135758006443/,https://www.instagram.com/explore/locations/902447859/madison-west-high-school/
March 14,Wisconsin,Madison,Robert M. La Follette High School,-89.3192031,43.0627689,https://www.facebook.com/events/128135758006443/,https://www.instagram.com/explore/locations/117658088294667/la-follette-high-school/
March 14,Wisconsin,Mequon,Homestead High School,-87.9712796,43.2234439,https://www.facebook.com/events/2029194877358147/,https://www.instagram.com/explore/locations/248787638/homestead-high-school-wisconsin/
March 14,Wisconsin,Port Washington,Port Washington High School,-87.8772247,43.3902983,https://www.facebook.com/events/199642870623882/,https://www.instagram.com/explore/locations/986104802/port-washington-high-school/
March 14,Wisconsin,Portage,Portage High School,-89.463813,43.5629452,https://www.facebook.com/events/130348421127137/,FALSE
March 14,Wisconsin,Waukesha,"Waukesha, National School Walkout",,,https://www.facebook.com/events/146534182683845,https://www.instagram.com/explore/locations/2462818/cutler-park/